[{"county":"Orange County","latitude":33.737719028593382,"longitude":-118.1078747535007,"spot_id":222,"spot_name":"Seal Beach Pier"},{"county":"Orange County","latitude":33.728485804642823,"longitude":-118.0908085660303,"spot_id":602,"spot_name":"Surfside Jetty"},{"county":"Orange County","latitude":33.72315771853458,"longitude":-118.0802261736895,"spot_id":603,"spot_name":"Anderson St"},{"county":"Orange County","latitude":33.685392159304449,"longitude":-118.0403658241339,"spot_id":604,"spot_name":"Bolsa Chica"},{"county":"Orange County","latitude":33.666156205815213,"longitude":-118.01901000164,"spot_id":220,"spot_name":"Goldenwest"},{"county":"Orange County","latitude":33.663945281265853,"longitude":-118.0140490339561,"spot_id":605,"spot_name":"17th Street"},{"county":"Orange County","latitude":33.655213981592752,"longitude":-118.0050433408805,"spot_id":221,"spot_name":"Huntington Pier"},{"county":"Orange County","latitude":33.648516554087408,"longitude":-117.9932214212635,"spot_id":643,"spot_name":"Huntington Beach"},{"county":"Orange County","latitude":33.628066527641927,"longitude":-117.9591291105893,"spot_id":606,"spot_name":"Santa Ana River Jetties"},{"county":"Orange County","latitude":33.62290558073348,"longitude":-117.9487673760861,"spot_id":219,"spot_name":"56th Street"},{"county":"Orange County","latitude":33.617227592487389,"longitude":-117.93881142211259,"spot_id":607,"spot_name":"40th Street"},{"county":"Orange County","latitude":33.615319034584573,"longitude":-117.9369576533262,"spot_id":608,"spot_name":"36th Street"},{"county":"Orange County","latitude":33.610958311825421,"longitude":-117.933626701894,"spot_id":651,"spot_name":"Blackies"},{"county":"Orange County","latitude":33.606646920042472,"longitude":-117.9307384511544,"spot_id":609,"spot_name":"Newport Pier"},{"county":"Orange County","latitude":33.593389938669887,"longitude":-117.88234297040751,"spot_id":217,"spot_name":"The Wedge"},{"county":"Orange County","latitude":33.474665045147823,"longitude":-117.7233023880989,"spot_id":214,"spot_name":"Salt Creek"},{"county":"Orange County","latitude":33.460330858205381,"longitude":-117.6886485710755,"spot_id":213,"spot_name":"Doheny"},{"county":"Orange County","latitude":33.419731942886493,"longitude":-117.6212676741133,"spot_id":212,"spot_name":"San Clemente Pier"},{"county":"Orange County","latitude":33.415965582403473,"longitude":-117.618142936175,"spot_id":211,"spot_name":"T Street"},{"county":"Orange County","latitude":33.41064330626746,"longitude":-117.6130013911603,"spot_id":391,"spot_name":"Lasuen"},{"county":"Orange County","latitude":33.406983705725018,"longitude":-117.6096503058218,"spot_id":644,"spot_name":"Riviera"},{"county":"Orange County","latitude":33.40480836264544,"longitude":-117.6073102678367,"spot_id":645,"spot_name":"Calafia"},{"county":"Orange County","latitude":33.402979968143072,"longitude":-117.6061996160215,"spot_id":392,"spot_name":"State Beach"},{"county":"Orange County","latitude":33.390612992576763,"longitude":-117.5987721491924,"spot_id":209,"spot_name":"Cottons Point"},{"county":"Orange County","latitude":33.384476301377603,"longitude":-117.59445112402619,"spot_id":623,"spot_name":"Upper Trestles"},{"county":"Orange County","latitude":33.382116955073258,"longitude":-117.5888397460814,"spot_id":208,"spot_name":"Lower Trestles"},{"county":"Orange County","latitude":33.380114554751792,"longitude":-117.5790343398904,"spot_id":625,"spot_name":"Church"},{"county":"Orange County","latitude":33.373605466203927,"longitude":-117.56912919937839,"spot_id":239,"spot_name":"San Onofre"},{"county":"Orange County","latitude":33.361706508624472,"longitude":-117.54497755140871,"spot_id":614,"spot_name":"Trails"}]